

{
    "acik_adres": "Recep Tayyip Erdoğan Parkı, Atatürk, 62000 Tunceli Merkez/Tunceli",
    "lat": 39.07834000955756,
    "lon": 39.54005503324944
}
{
    "acik_adres": "Cumhuriyet, Kurusipi Yolu, 62000 Tunceli Merkez/Tunceli",
    "lat": 39.0852934,
    "lon": 39.5139629
}
{
    "acik_adres": "Moğultay, Atıl Uzelgün Cd. No:91, 62000 Tunceli Merkez/Tunceli",
    "lat": 39.1043627,
    "lon": 39.5455448
}
{
    "acik_adres": "İsmet İnönü, Tunceli Erzincan Yolu, 62000 Tunceli Merkez/Tunceli",
    "lat": 39.1055282,
    "lon": 39.5671214
}
{
    "acik_adres": "Merkez, Aktuluk Mahallesi, Üniversite Yerleşkesi, 62000 Tunceli Merkez/Tunceli",
    "lat": 39.040135,
    "lon": 39.5041631
}
{
    "acik_adres": "Moğultay, Cemal Gürsel Cd. No:14, 62000 Tunceli Merkez/Tunceli",
    "lat": 39.10786299999999,
    "lon": 39.5459752
}
{
   
    "lat": 39.07757277169903,
    "lon": 39.53149979529953
}
{
   
    "lat": 39.0852934,
    "lon": 39.5139629
}